[
    {
        "id": 1,
        "name": "Pottiaceae",
        "location": [
            {
                "lng": 113.657419,
                "lat": 23.092389
            }
        ],
        "stars": 1
    },
    {
        "id": 2,
        "name": "Poaceae",
        "location": [
            {
                "lng": 104.0769024,
                "lat": 16.7315698
            }
        ],
        "stars": 2
    },
    {
        "id": 3,
        "name": "Brassicaceae",
        "location": [
            {
                "lng": -73.035988,
                "lat": -11.14718
            }
        ],
        "stars": 3
    },
    {
        "id": 4,
        "name": "Fabaceae",
        "location": [
            {
                "lng": 18.1662713,
                "lat": 52.0697452
            }
        ],
        "stars": 4
    },
    {
        "id": 5,
        "name": "Arthopyreniaceae",
        "location": [
            {
                "lng": 43.9436788,
                "lat": 16.2569214
            }
        ],
        "stars": 5
    },
    {
        "id": 6,
        "name": "Poaceae",
        "location": [
            {
                "lng": -48.6550692,
                "lat": -26.8947924
            }
        ],
        "stars": 6
    },
    {
        "id": 7,
        "name": "Viscaceae",
        "location": [
            {
                "lng": 114.2212174,
                "lat": 4.5831986
            }
        ],
        "stars": 7
    },
    {
        "id": 8,
        "name": "Cyperaceae",
        "location": [
            {
                "lng": 132.0484904,
                "lat": -1.2664363
            }
        ],
        "stars": 8
    },
    {
        "id": 9,
        "name": "Leucodontaceae",
        "location": [
            {
                "lng": 36.9433591,
                "lat": -0.4277809
            }
        ],
        "stars": 9
    },
    {
        "id": 10,
        "name": "Asteraceae",
        "location": [
            {
                "lng": 22.0152079,
                "lat": 50.0360024
            }
        ],
        "stars": 10
    }
]